
{
  "type" : "FeatureCollection",
  "features" : [{"type":"Feature","id":1,"geometry":{"type":"Point","coordinates":[-86.429377839952878,36.964174407299254]},"properties":{"OBJECTID":1,"OBJECTID_1":null,"TYPE":"FIRE","Place_name":"AIRPORT FIRE STATION","CITY":"BOWLING GREEN","STATE":"KY","ZIPCODE":42103,"ALIAS":"STATION 2 BGFD","PRE_DIR":" ","STREET":"WOODHURST","SUFTYPE":"ST","SUFDIR":" ","SUBHOUSE":" ","HOUSENO":"1102","ADDRESS":"1102 WOODHURST ST","SUBD":" ","Bus_phone":" ","created_us":" ","created_da":null,"last_edite":"MILLS21","last_edi_1":1673913600000,"NOTE":" ","StreetID":"2171","latitude":36.964168549999997,"longitude":-86.429374690000003,"ServiceAre":"CITY OF BOWLING GREEN","GlobalID":"{2ECF4C8F-01A3-4037-A410-304B0E851244}","Prof_Vol":"Professional","Delay":1,"Candidate":0,"Required":1,"Station_Type":1}},{"type":"Feature","id":2,"geometry":{"type":"Point","coordinates":[-86.353754381413125,36.876457717684943]},"properties":{"OBJECTID":2,"OBJECTID_1":null,"TYPE":"FIRE","Place_name":"ALVATON FIRE STATION 1","CITY":"ALVATON","STATE":"KY","ZIPCODE":42122,"ALIAS":" ","PRE_DIR":" ","STREET":"OLD SCOTTSVILLE","SUFTYPE":"RD","SUFDIR":" ","SUBHOUSE":" ","HOUSENO":"6403","ADDRESS":"6403 OLD SCOTTSVILLE RD","SUBD":" ","Bus_phone":" ","created_us":" ","created_da":null,"last_edite":"MILLS21","last_edi_1":1669680000000,"NOTE":" ","StreetID":"3200","latitude":36.876449579999999,"longitude":-86.353752139999997,"ServiceAre":"WARREN COUNTY","GlobalID":"{47D4C6F9-106C-408A-A5CC-FF75204FDBF2}","Prof_Vol":"Candidate","Delay":1,"Candidate":0,"Required":1,"Station_Type":3}},{"type":"Feature","id":3,"geometry":{"type":"Point","coordinates":[-86.411618982245997,36.924202692386594]},"properties":{"OBJECTID":3,"OBJECTID_1":null,"TYPE":"FIRE","Place_name":"ALVATON FIRE STATION 3","CITY":"BOWLING GREEN","STATE":"KY","ZIPCODE":42104,"ALIAS":" ","PRE_DIR":" ","STREET":"JFS","SUFTYPE":"CIR","SUFDIR":" ","SUBHOUSE":" ","HOUSENO":"122","ADDRESS":"122 JFS CIR","SUBD":" ","Bus_phone":" ","created_us":" ","created_da":null,"last_edite":"MILLS21","last_edi_1":1669680000000,"NOTE":" ","StreetID":"2778","latitude":36.92419434,"longitude":-86.411613459999998,"ServiceAre":"WARREN COUNTY","GlobalID":"{6FCED3E7-1968-49EA-92F0-4F0869C8EA22}","Prof_Vol":"Volunteer","Delay":7,"Candidate":0,"Required":1,"Station_Type":2}},{"type":"Feature","id":4,"geometry":{"type":"Point","coordinates":[-86.313708090523221,36.939013915981882]},"properties":{"OBJECTID":4,"OBJECTID_1":null,"TYPE":"FIRE","Place_name":"ALVATON FIRE STATION 2","CITY":"BOWLING GREEN","STATE":"KY","ZIPCODE":42103,"ALIAS":" ","PRE_DIR":" ","STREET":"CEMETERY","SUFTYPE":"RD","SUFDIR":" ","SUBHOUSE":" ","HOUSENO":"8352","ADDRESS":"8352 CEMETERY RD","SUBD":" ","Bus_phone":" ","created_us":" ","created_da":null,"last_edite":"MILLS21","last_edi_1":1673913600000,"NOTE":" ","StreetID":"1181","latitude":36.939006810000002,"longitude":-86.313705440000007,"ServiceAre":"WARREN COUNTY","GlobalID":"{D4C5FE00-3659-4512-9AA8-A45198A941CB}","Prof_Vol":"Volunteer","Delay":7,"Candidate":0,"Required":1,"Station_Type":2}},{"type":"Feature","id":5,"geometry":{"type":"Point","coordinates":[-86.520290868832575,37.055734357465482]},"properties":{"OBJECTID":5,"OBJECTID_1":null,"TYPE":"FIRE","Place_name":"BARREN RIVER FIRE STATION 1","CITY":"BOWLING GREEN","STATE":"KY","ZIPCODE":42101,"ALIAS":" ","PRE_DIR":" ","STREET":"JENKINS","SUFTYPE":"RD","SUFDIR":" ","SUBHOUSE":" ","HOUSENO":"121","ADDRESS":"121 JENKINS RD","SUBD":" ","Bus_phone":" ","created_us":" ","created_da":null,"last_edite":"MILLS21","last_edi_1":1673308800000,"NOTE":" ","StreetID":"4365","latitude":37.055728909999999,"longitude":-86.520286560000002,"ServiceAre":"WARREN COUNTY","GlobalID":"{28F3702F-B2C5-4D52-8401-D6AB45D2000C}","Prof_Vol":"Volunteer","Delay":7,"Candidate":0,"Required":1,"Station_Type":2}},{"type":"Feature","id":6,"geometry":{"type":"Point","coordinates":[-86.504187582859842,36.989025090702924]},"properties":{"OBJECTID":6,"OBJECTID_1":null,"TYPE":"FIRE","Place_name":"BARREN RIVER FIRE STATION 2","CITY":"BOWLING GREEN","STATE":"KY","ZIPCODE":42101,"ALIAS":" ","PRE_DIR":" ","STREET":"BROOKWOOD","SUFTYPE":"DR","SUFDIR":" ","SUBHOUSE":" ","HOUSENO":"529","ADDRESS":"529 BROOKWOOD DR","SUBD":"ELK CREEK FARMS","Bus_phone":" ","created_us":" ","created_da":null,"last_edite":"MILLS21","last_edi_1":1670284800000,"NOTE":" ","StreetID":"180","latitude":36.989017490000002,"longitude":-86.504180910000002,"ServiceAre":"WARREN COUNTY","GlobalID":"{21DF7C14-8275-4CD0-B51B-D334D6982B14}","Prof_Vol":"Volunteer","Delay":7,"Candidate":0,"Required":1,"Station_Type":2}},{"type":"Feature","id":7,"geometry":{"type":"Point","coordinates":[-86.606235416969142,36.946032892505663]},"properties":{"OBJECTID":7,"OBJECTID_1":null,"TYPE":"FIRE","Place_name":"BROWNING FIRE STATION 1","CITY":"ROCKFIELD","STATE":"KY","ZIPCODE":42274,"ALIAS":" ","PRE_DIR":" ","STREET":"BROWNING","SUFTYPE":"RD","SUFDIR":" ","SUBHOUSE":" ","HOUSENO":"3866","ADDRESS":"3866 BROWNING RD","SUBD":" ","Bus_phone":" ","created_us":" ","created_da":null,"last_edite":"MILLS21","last_edi_1":1673913600000,"NOTE":" ","StreetID":"3804","latitude":36.946025849999998,"longitude":-86.606231690000001,"ServiceAre":"WARREN COUNTY","GlobalID":"{0A30AB15-B8CA-460E-A6CF-7304C2FF3878}","Prof_Vol":"Volunteer","Delay":7,"Candidate":0,"Required":1,"Station_Type":2}},{"type":"Feature","id":8,"geometry":{"type":"Point","coordinates":[-86.521020463504954,36.964057039007841]},"properties":{"OBJECTID":8,"OBJECTID_1":null,"TYPE":"FIRE","Place_name":"BROWNING FIRE STATION 2","CITY":"BOWLING GREEN","STATE":"KY","ZIPCODE":42101,"ALIAS":" ","PRE_DIR":" ","STREET":"KITCHENS SOUTH","SUFTYPE":"RD","SUFDIR":" ","SUBHOUSE":" ","HOUSENO":"325","ADDRESS":"325 KITCHENS SOUTH RD","SUBD":" ","Bus_phone":" ","created_us":" ","created_da":null,"last_edite":"MILLS21","last_edi_1":1670284800000,"NOTE":" ","StreetID":"2217","latitude":36.964050290000003,"longitude":-86.521018979999994,"ServiceAre":"WARREN COUNTY","GlobalID":"{5B876D1B-9826-4CD0-93BE-F23CC70ADEE8}","Prof_Vol":"Volunteer","Delay":7,"Candidate":0,"Required":1,"Station_Type":2}},{"type":"Feature","id":9,"geometry":{"type":"Point","coordinates":[-86.43545979587617,36.99302554994]},"properties":{"OBJECTID":9,"OBJECTID_1":null,"TYPE":"FIRE","Place_name":"CENTRAL FIRE STATION","CITY":"BOWLING GREEN","STATE":"KY","ZIPCODE":42101,"ALIAS":"STATION 1 BGFD","PRE_DIR":"E","STREET":"7TH","SUFTYPE":"AV","SUFDIR":" ","SUBHOUSE":" ","HOUSENO":"701","ADDRESS":"701 E 7TH AV","SUBD":" ","Bus_phone":" ","created_us":" ","created_da":null,"last_edite":"MILLS21","last_edi_1":1669680000000,"NOTE":" ","StreetID":"8307","latitude":36.993019099999998,"longitude":-86.435455320000003,"ServiceAre":"CITY OF BOWLING GREEN","GlobalID":"{1549E9AF-E1A4-4800-93AA-5A5CD59BC5C4}","Prof_Vol":"Professional","Delay":1,"Candidate":0,"Required":1,"Station_Type":1}},{"type":"Feature","id":10,"geometry":{"type":"Point","coordinates":[-86.313837919541342,36.972887910265975]},"properties":{"OBJECTID":10,"OBJECTID_1":null,"TYPE":"FIRE","Place_name":"GOTT FIRE STATION","CITY":"BOWLING GREEN","STATE":"KY","ZIPCODE":42103,"ALIAS":" ","PRE_DIR":" ","STREET":"PORTER","SUFTYPE":"PKE","SUFDIR":" ","SUBHOUSE":" ","HOUSENO":"5636","ADDRESS":"5636 PORTER PKE","SUBD":" ","Bus_phone":" ","created_us":" ","created_da":null,"last_edite":"MILLS21","last_edi_1":1673913600000,"NOTE":" ","StreetID":"2937","latitude":36.972881319999999,"longitude":-86.313835139999995,"ServiceAre":"WARREN COUNTY","GlobalID":"{1B61CECD-EA01-4854-B2CE-6B9BCEC0393A}","Prof_Vol":"Volunteer","Delay":7,"Candidate":0,"Required":1,"Station_Type":2}},{"type":"Feature","id":11,"geometry":{"type":"Point","coordinates":[-86.606333942125517,37.058660978612288]},"properties":{"OBJECTID":11,"OBJECTID_1":null,"TYPE":"FIRE","Place_name":"HADLEY FIRE STATION","CITY":"BOWLING GREEN","STATE":"KY","ZIPCODE":42101,"ALIAS":" ","PRE_DIR":" ","STREET":"HADLEY SCHOOL","SUFTYPE":"RD","SUFDIR":" ","SUBHOUSE":" ","HOUSENO":"255","ADDRESS":"255 HADLEY SCHOOL RD","SUBD":" ","Bus_phone":" ","created_us":" ","created_da":null,"last_edite":"MILLS21","last_edi_1":1673913600000,"NOTE":" ","StreetID":"3507","latitude":37.058654789999999,"longitude":-86.606330869999994,"ServiceAre":"WARREN COUNTY","GlobalID":"{F9DD2ABA-CFA0-4573-B7CD-287256A5BEBB}","Prof_Vol":"Volunteer","Delay":7,"Candidate":0,"Required":1,"Station_Type":2}},{"type":"Feature","id":12,"geometry":{"type":"Point","coordinates":[-86.387595181087633,37.007465729957019]},"properties":{"OBJECTID":12,"OBJECTID_1":null,"TYPE":"FIRE","Place_name":"NORTHSIDE FIRE STATION","CITY":"BOWLING GREEN","STATE":"KY","ZIPCODE":42103,"ALIAS":"STATION 5 BGFD","PRE_DIR":" ","STREET":"PORTER","SUFTYPE":"PKE","SUFDIR":" ","SUBHOUSE":" ","HOUSENO":"250","ADDRESS":"250 PORTER PKE","SUBD":" ","Bus_phone":" ","created_us":" ","created_da":null,"last_edite":"MILLS21","last_edi_1":1669680000000,"NOTE":" ","StreetID":"5691","latitude":37.007457729999999,"longitude":-86.387588500000007,"ServiceAre":"CITY OF BOWLING GREEN","GlobalID":"{7180A544-0FC0-44D1-A4EB-F2DE4F88A759}","Prof_Vol":"Professional","Delay":1,"Candidate":0,"Required":1,"Station_Type":1}},{"type":"Feature","id":13,"geometry":{"type":"Point","coordinates":[-86.418369750373742,36.879757578213685]},"properties":{"OBJECTID":13,"OBJECTID_1":null,"TYPE":"FIRE","Place_name":"PLANO FIRE STATION 1","CITY":"BOWLING GREEN","STATE":"KY","ZIPCODE":42104,"ALIAS":" ","PRE_DIR":" ","STREET":"PLANO","SUFTYPE":"RD","SUFDIR":" ","SUBHOUSE":" ","HOUSENO":"3210","ADDRESS":"3210 PLANO RD","SUBD":" ","Bus_phone":" ","created_us":" ","created_da":null,"last_edite":"MILLS21","last_edi_1":1669680000000,"NOTE":" ","StreetID":"4256","latitude":36.8797493,"longitude":-86.418365480000006,"ServiceAre":"WARREN COUNTY","GlobalID":"{7F4B14EF-E251-4EF7-8650-713E403D5BB7}","Prof_Vol":"Candidate","Delay":1,"Candidate":0,"Required":1,"Station_Type":3}},{"type":"Feature","id":14,"geometry":{"type":"Point","coordinates":[-86.428783341670581,36.844868552404499]},"properties":{"OBJECTID":14,"OBJECTID_1":null,"TYPE":"FIRE","Place_name":"PLANO FIRE STATION 2","CITY":"BOWLING GREEN","STATE":"KY","ZIPCODE":42104,"ALIAS":" ","PRE_DIR":" ","STREET":"WOODBURN ALLEN SPRINGS","SUFTYPE":"RD","SUFDIR":" ","SUBHOUSE":" ","HOUSENO":"7124","ADDRESS":"7124 WOODBURN ALLEN SPRINGS RD","SUBD":" ","Bus_phone":" ","created_us":" ","created_da":null,"last_edite":"MILLS21","last_edi_1":1673913600000,"NOTE":" ","StreetID":"4425","latitude":36.844860079999997,"longitude":-86.428779599999999,"ServiceAre":"WARREN COUNTY","GlobalID":"{8A0A793B-17ED-49EF-8921-292BA72C6FCD}","Prof_Vol":"Volunteer","Delay":7,"Candidate":0,"Required":1,"Station_Type":2}},{"type":"Feature","id":15,"geometry":{"type":"Point","coordinates":[-86.464230473576905,37.096306192096492]},"properties":{"OBJECTID":15,"OBJECTID_1":null,"TYPE":"FIRE","Place_name":"RICHARDSVILLE FIRE STATION 1","CITY":"BOWLING GREEN","STATE":"KY","ZIPCODE":42101,"ALIAS":" ","PRE_DIR":" ","STREET":"RICHARDSVILLE","SUFTYPE":"RD","SUFDIR":" ","SUBHOUSE":" ","HOUSENO":"1185","ADDRESS":"1185 RICHARDSVILLE RD","SUBD":" ","Bus_phone":" ","created_us":" ","created_da":null,"last_edite":"MILLS21","last_edi_1":1673913600000,"NOTE":" ","StreetID":"4392","latitude":37.096298220000001,"longitude":-86.464225769999999,"ServiceAre":"WARREN COUNTY","GlobalID":"{D55B0DF8-49AC-41D8-9CB6-6AE292F99CE7}","Prof_Vol":"Volunteer","Delay":7,"Candidate":0,"Required":1,"Station_Type":2}},{"type":"Feature","id":16,"geometry":{"type":"Point","coordinates":[-86.370710146818581,37.061671039966257]},"properties":{"OBJECTID":16,"OBJECTID_1":null,"TYPE":"FIRE","Place_name":"RICHARDSVILLE FIRE STATION 2","CITY":"BOWLING GREEN","STATE":"KY","ZIPCODE":42101,"ALIAS":" ","PRE_DIR":" ","STREET":"MT OLIVET GIRKIN","SUFTYPE":"RD","SUFDIR":" ","SUBHOUSE":" ","HOUSENO":"1107","ADDRESS":"1107 MT OLIVET GIRKIN RD","SUBD":" ","Bus_phone":" ","created_us":" ","created_da":null,"last_edite":"MILLS21","last_edi_1":1673913600000,"NOTE":" ","StreetID":"3945","latitude":37.061664579999999,"longitude":-86.370704649999993,"ServiceAre":"WARREN COUNTY","GlobalID":"{6309785A-E000-4D47-9BA5-462E6F7BE53D}","Prof_Vol":"Volunteer","Delay":7,"Candidate":0,"Required":1,"Station_Type":2}},{"type":"Feature","id":17,"geometry":{"type":"Point","coordinates":[-86.379452854056922,37.019968448050676]},"properties":{"OBJECTID":17,"OBJECTID_1":null,"TYPE":"FIRE","Place_name":"RICHARDSVILLE FIRE STATION 3","CITY":"BOWLING GREEN","STATE":"KY","ZIPCODE":42101,"ALIAS":" ","PRE_DIR":" ","STREET":"OAK","SUFTYPE":"ST","SUFDIR":" ","SUBHOUSE":" ","HOUSENO":"288","ADDRESS":"288 OAK ST","SUBD":" ","Bus_phone":" ","created_us":" ","created_da":null,"last_edite":"MILLS21","last_edi_1":1673913600000,"NOTE":" ","StreetID":"704","latitude":37.019962309999997,"longitude":-86.379447940000006,"ServiceAre":"WARREN COUNTY","GlobalID":"{98DB484E-83AF-45E2-AB01-8EA906991A0D}","Prof_Vol":"Volunteer","Delay":7,"Candidate":0,"Required":1,"Station_Type":2}},{"type":"Feature","id":18,"geometry":{"type":"Point","coordinates":[-86.1932071792735,36.974336356437213]},"properties":{"OBJECTID":18,"OBJECTID_1":null,"TYPE":"FIRE","Place_name":"SMITHS GROVE FIRE STATION 2","CITY":"SMITHS GROVE","STATE":"KY","ZIPCODE":42171,"ALIAS":" ","PRE_DIR":" ","STREET":"GOTTS HYDRO","SUFTYPE":"RD","SUFDIR":" ","SUBHOUSE":" ","HOUSENO":"6906","ADDRESS":"6906 GOTTS HYDRO RD","SUBD":" ","Bus_phone":" ","created_us":" ","created_da":null,"last_edite":"MILLS21","last_edi_1":1669680000000,"NOTE":" ","StreetID":"3371","latitude":36.974330899999998,"longitude":-86.193199160000006,"ServiceAre":"WARREN COUNTY","GlobalID":"{DD3D6A4C-60CD-4507-92F2-C475527307A7}","Prof_Vol":"Volunteer","Delay":7,"Candidate":0,"Required":1,"Station_Type":2}},{"type":"Feature","id":19,"geometry":{"type":"Point","coordinates":[-86.208116205317609,37.051574487757428]},"properties":{"OBJECTID":19,"OBJECTID_1":null,"TYPE":"FIRE","Place_name":"SMITHS GROVE FIRE STATION 1","CITY":"SMITHS GROVE","STATE":"KY","ZIPCODE":42171,"ALIAS":" ","PRE_DIR":" ","STREET":"MAIN","SUFTYPE":"ST","SUFDIR":"S","SUBHOUSE":" ","HOUSENO":"124","ADDRESS":"124 MAIN ST S","SUBD":" ","Bus_phone":" ","created_us":" ","created_da":null,"last_edite":"MILLS21","last_edi_1":1669680000000,"NOTE":" ","StreetID":"3958","latitude":37.051567079999998,"longitude":-86.208114620000003,"ServiceAre":"WARREN COUNTY","GlobalID":"{42ED0A4E-F7C2-426F-A145-EFF238862930}","Prof_Vol":"Volunteer","Delay":7,"Candidate":0,"Required":1,"Station_Type":2}},{"type":"Feature","id":20,"geometry":{"type":"Point","coordinates":[-86.482919641992211,36.939294805765179]},"properties":{"OBJECTID":20,"OBJECTID_1":null,"TYPE":"FIRE","Place_name":"SOUTHSIDE FIRE STATION","CITY":"BOWLING GREEN","STATE":"KY","ZIPCODE":42104,"ALIAS":"STATION 3 BGFD","PRE_DIR":" ","STREET":"BENNETT","SUFTYPE":"LN","SUFDIR":" ","SUBHOUSE":" ","HOUSENO":"150","ADDRESS":"150 BENNETT LN","SUBD":" ","Bus_phone":" ","created_us":" ","created_da":null,"last_edite":"MILLS21","last_edi_1":1669680000000,"NOTE":" ","StreetID":"1116","latitude":36.939289090000003,"longitude":-86.482917790000002,"ServiceAre":"CITY OF BOWLING GREEN","GlobalID":"{3187E8E0-355E-4767-ACA9-EC1053911145}","Prof_Vol":"Professional","Delay":1,"Candidate":0,"Required":1,"Station_Type":1}},{"type":"Feature","id":21,"geometry":{"type":"Point","coordinates":[-86.512137855902679,36.913407149266753]},"properties":{"OBJECTID":21,"OBJECTID_1":null,"TYPE":"FIRE","Place_name":"WOODBURN FIRE STATION 2","CITY":"BOWLING GREEN","STATE":"KY","ZIPCODE":42101,"ALIAS":" ","PRE_DIR":" ","STREET":"NASHVILLE","SUFTYPE":"RD","SUFDIR":" ","SUBHOUSE":" ","HOUSENO":"7055","ADDRESS":"7055 NASHVILLE RD","SUBD":" ","Bus_phone":" ","created_us":" ","created_da":null,"last_edite":"MILLS21","last_edi_1":1673913600000,"NOTE":" ","StreetID":"1903","latitude":36.913398739999998,"longitude":-86.512130740000003,"ServiceAre":"WARREN COUNTY","GlobalID":"{312E65E5-EE5A-40DD-BA7A-28987A685D75}","Prof_Vol":"Candidate","Delay":1,"Candidate":0,"Required":1,"Station_Type":3}},{"type":"Feature","id":22,"geometry":{"type":"Point","coordinates":[-86.525565795730813,36.842393059384349]},"properties":{"OBJECTID":22,"OBJECTID_1":null,"TYPE":"FIRE","Place_name":"WOODBURN FIRE STATION 1","CITY":"WOODBURN","STATE":"KY","ZIPCODE":42170,"ALIAS":" ","PRE_DIR":" ","STREET":"WOODBURN ALLEN SPRINGS","SUFTYPE":"RD","SUFDIR":" ","SUBHOUSE":" ","HOUSENO":"900","ADDRESS":"900 WOODBURN ALLEN SPRINGS RD","SUBD":" ","Bus_phone":" ","created_us":" ","created_da":null,"last_edite":"MILLS21","last_edi_1":1669680000000,"NOTE":" ","StreetID":"4433","latitude":36.842384340000002,"longitude":-86.525558470000007,"ServiceAre":"WARREN COUNTY","GlobalID":"{4B7D49BC-4595-45A8-8F79-0CD20317222D}","Prof_Vol":"Volunteer","Delay":7,"Candidate":0,"Required":1,"Station_Type":2}},{"type":"Feature","id":23,"geometry":{"type":"Point","coordinates":[-86.389321377632157,36.976070765271579]},"properties":{"OBJECTID":23,"OBJECTID_1":null,"TYPE":"FIRE","Place_name":"ALVATON FIRE STATION 4","CITY":"BOWLING GREEN","STATE":"KY","ZIPCODE":42103,"ALIAS":" ","PRE_DIR":" ","STREET":"CUMBERLAND TRACE","SUFTYPE":"RD","SUFDIR":" ","SUBHOUSE":" ","HOUSENO":"3383","ADDRESS":"3383 CUMBERLAND TRACE RD","SUBD":" ","Bus_phone":" ","created_us":" ","created_da":null,"last_edite":"MILLS21","last_edi_1":1670284800000,"NOTE":" ","StreetID":"2258","latitude":36.976062769999999,"longitude":-86.389312739999994,"ServiceAre":"WARREN COUNTY","GlobalID":"{26A2A107-A1CD-4BE4-9B33-0033D7C1B3CC}","Prof_Vol":"Volunteer","Delay":7,"Candidate":0,"Required":1,"Station_Type":2}},{"type":"Feature","id":24,"geometry":{"type":"Point","coordinates":[-86.411979411989421,36.930317562936686]},"properties":{"OBJECTID":24,"OBJECTID_1":null,"TYPE":"FIRE","Place_name":"GREENWOOD FIRE STATION","CITY":"BOWLING GREEN","STATE":"KY","ZIPCODE":42103,"ALIAS":"STATION 6 BGFD","PRE_DIR":" ","STREET":"CHERRY FARM","SUFTYPE":"LN","SUFDIR":" ","SUBHOUSE":" ","HOUSENO":"201","ADDRESS":"201 CHERRY FARM LN","SUBD":" ","Bus_phone":" ","created_us":" ","created_da":null,"last_edite":"MILLS21","last_edi_1":1669680000000,"NOTE":" ","StreetID":"2240","latitude":36.930309299999998,"longitude":-86.411972050000003,"ServiceAre":"CITY OF BOWLING GREEN","GlobalID":"{EF2CDA99-5E8B-46E2-965D-00987D0C7794}","Prof_Vol":"Professional","Delay":1,"Candidate":0,"Required":1,"Station_Type":1}},{"type":"Feature","id":25,"geometry":{"type":"Point","coordinates":[-86.474347191433438,36.987846309686695]},"properties":{"OBJECTID":25,"OBJECTID_1":null,"TYPE":"FIRE","Place_name":"WESTSIDE FIRE STATION","CITY":"BOWLING GREEN","STATE":"KY","ZIPCODE":42101,"ALIAS":"STATION 4 BGFD","PRE_DIR":" ","STREET":"MORGANTOWN","SUFTYPE":"RD","SUFDIR":" ","SUBHOUSE":" ","HOUSENO":"835","ADDRESS":"835 MORGANTOWN RD","SUBD":" ","Bus_phone":" ","created_us":" ","created_da":null,"last_edite":"gisadmin","last_edi_1":1713225600000,"NOTE":" ","StreetID":"196","latitude":36.987838750000002,"longitude":-86.474342350000001,"ServiceAre":"CITY OF BOWLING GREEN","GlobalID":"{02B8820D-70C8-41AD-A1A8-55ADC1390B2F}","Prof_Vol":"Professional","Delay":1,"Candidate":0,"Required":1,"Station_Type":1}},{"type":"Feature","id":26,"geometry":{"type":"Point","coordinates":[-86.311615804536245,37.019256443561041]},"properties":{"OBJECTID":26,"OBJECTID_1":null,"TYPE":"FIRE","Place_name":"GOTT FIRE STATION 2","CITY":"BOWLING GREEN","STATE":"KY","ZIPCODE":42101,"ALIAS":" ","PRE_DIR":" ","STREET":"SUNNYSIDE GOTTS","SUFTYPE":"RD","SUFDIR":" ","SUBHOUSE":" ","HOUSENO":"1424","ADDRESS":"1424 SUNNYSIDE GOTTS RD","SUBD":" ","Bus_phone":" ","created_us":" ","created_da":null,"last_edite":"MILLS21","last_edi_1":1669680000000,"NOTE":" ","StreetID":" ","latitude":37.019248959999999,"longitude":-86.311607359999996,"ServiceAre":"WARREN COUNTY","GlobalID":"{9FC07FA2-32C3-4B9C-AEF9-65836D0EFF48}","Prof_Vol":"Volunteer","Delay":7,"Candidate":0,"Required":1,"Station_Type":2}},{"type":"Feature","id":27,"geometry":{"type":"Point","coordinates":[-86.403604517107084,36.971025600120285]},"properties":{"OBJECTID":27,"OBJECTID_1":null,"TYPE":"FIRE","Place_name":"LOVERS LN FIRE STATION","CITY":"BOWLING GREEN","STATE":"KY","ZIPCODE":42103,"ALIAS":"STATION 7 BGFD","PRE_DIR":" ","STREET":"LOVERS","SUFTYPE":"LN","SUFDIR":" ","SUBHOUSE":" ","HOUSENO":"385","ADDRESS":"385 LOVERS LN","SUBD":" ","Bus_phone":" ","created_us":" ","created_da":null,"last_edite":"gisadmin","last_edi_1":1713225600000,"NOTE":" ","StreetID":"6255","latitude":36.971019740000003,"longitude":-86.403602599999999,"ServiceAre":"CITY OF BOWLING GREEN","GlobalID":"{CAC13C43-696C-45D8-B83F-A4FC298E83DA}","Prof_Vol":"Professional","Delay":1,"Candidate":0,"Required":1,"Station_Type":1}},{"type":"Feature","id":28,"geometry":{"type":"Point","coordinates":[-86.423373709142837,37.115559956897471]},"properties":{"OBJECTID":28,"OBJECTID_1":null,"TYPE":"FIRE","Place_name":"RICHARDSVILLE FIRE STATION 4","CITY":"BOWLING GREEN","STATE":"KY","ZIPCODE":42101,"ALIAS":" ","PRE_DIR":" ","STREET":"KY HWY 185","SUFTYPE":" ","SUFDIR":" ","SUBHOUSE":" ","HOUSENO":"9408","ADDRESS":"9408 KY HWY 185","SUBD":" ","Bus_phone":" ","created_us":" ","created_da":null,"last_edite":"MILLS21","last_edi_1":1679097600000,"NOTE":" ","StreetID":"3724","latitude":37.115554809999999,"longitude":-86.423370360000007,"ServiceAre":"WARREN COUNTY","GlobalID":"{0FF7679B-450D-4B85-9087-F86B01E4D45E}","Prof_Vol":"Volunteer","Delay":7,"Candidate":0,"Required":1,"Station_Type":2}},{"type":"Feature","id":29,"geometry":{"type":"Point","coordinates":[-86.444789319889225,37.035920411477441]},"properties":{"OBJECTID":29,"OBJECTID_1":null,"TYPE":"FIRE","Place_name":"RICHARDSVILLE FIRE STATION 5","CITY":"BOWLING GREEN","STATE":"KY","ZIPCODE":42101,"ALIAS":" ","PRE_DIR":" ","STREET":"SLIM ISLAND","SUFTYPE":"RD","SUFDIR":" ","SUBHOUSE":" ","HOUSENO":"198","ADDRESS":"198 SLIM ISLAND RD","SUBD":" ","Bus_phone":" ","created_us":" ","created_da":null,"last_edite":"MILLS21","last_edi_1":1678838400000,"NOTE":" ","StreetID":"5661","latitude":37.035911560000002,"longitude":-86.444786070000006,"ServiceAre":"WARREN COUNTY","GlobalID":"{A26CA908-1C40-4FD8-939D-D034A7A14B76}","Prof_Vol":"Volunteer","Delay":7,"Candidate":0,"Required":1,"Station_Type":2}},{"type":"Feature","id":30,"geometry":{"type":"Point","coordinates":[-86.143743381316057,37.030426657331731]},"properties":{"OBJECTID":30,"OBJECTID_1":null,"TYPE":"FIRE","Place_name":"SMITHS GROVE FIRE STATION 3","CITY":"SMITHS GROVE","STATE":"KY","ZIPCODE":42171,"ALIAS":" ","PRE_DIR":" ","STREET":"GLASGOW","SUFTYPE":"RD","SUFDIR":" ","SUBHOUSE":" ","HOUSENO":"11047","ADDRESS":"11047 GLASGOW RD","SUBD":" ","Bus_phone":" ","created_us":" ","created_da":null,"last_edite":"MILLS21","last_edi_1":1669680000000,"NOTE":" ","StreetID":"4353","latitude":37.030475619999997,"longitude":-86.1440506,"ServiceAre":"WARREN COUNTY","GlobalID":"{B8A1BFA4-D875-4765-B901-3457BDCF71DE}","Prof_Vol":"Volunteer","Delay":7,"Candidate":0,"Required":1,"Station_Type":2}},{"type":"Feature","id":31,"geometry":{"type":"Point","coordinates":[-86.544704719830932,37.157231187268572]},"properties":{"OBJECTID":31,"OBJECTID_1":null,"TYPE":"FIRE","Place_name":"RICHARDSVILLE FIRE STATION 6","CITY":"BOWLING GREEN","STATE":"KY","ZIPCODE":42101,"ALIAS":" ","PRE_DIR":" ","STREET":"RIVERSIDE BENLEO","SUFTYPE":"RD","SUFDIR":" ","SUBHOUSE":" ","HOUSENO":"3773","ADDRESS":"3773 RIVERSIDE BENLEO RD","SUBD":" ","Bus_phone":" ","created_us":"MILLS21","created_da":1623715200000,"last_edite":"MILLS21","last_edi_1":1676246400000,"NOTE":" ","StreetID":"3618","latitude":37.157222750000003,"longitude":-86.54470062,"ServiceAre":"WARREN COUNTY","GlobalID":"{F4D12AB4-E727-451C-92EA-429904DF7689}","Prof_Vol":"Volunteer","Delay":7,"Candidate":0,"Required":1,"Station_Type":2}},{"type":"Feature","id":32,"geometry":{"type":"Point","coordinates":[-86.324204963742233,37.033565736065832]},"properties":{"OBJECTID":32,"OBJECTID_1":null,"TYPE":"FIRE","Place_name":"TRANSPARK FIRE STATION","CITY":"BOWLING GREEN","STATE":"KY","ZIPCODE":42101,"ALIAS":"STATION 8 BGFD","PRE_DIR":" ","STREET":"GLASGOW","SUFTYPE":"RD","SUFDIR":" ","SUBHOUSE":" ","HOUSENO":"756","ADDRESS":"756 GLASGOW RD","SUBD":" ","Bus_phone":" ","created_us":"gisadmin","created_da":1713225600000,"last_edite":"gisadmin","last_edi_1":1713225600000,"NOTE":" ","StreetID":"491","latitude":37.033557889999997,"longitude":-86.324203490000002,"ServiceAre":"CITY OF BOWLING GREEN","GlobalID":"{19409F10-5F7C-4266-A4DC-FCADE2A049F5}","Prof_Vol":"Professional","Delay":1,"Candidate":0,"Required":1,"Station_Type":1}},{"type":"Feature","id":33,"geometry":{"type":"Point","coordinates":[-86.406727882183446,37.061828153119372]},"properties":{"OBJECTID":33,"OBJECTID_1":null,"TYPE":"FIRE","Place_name":"MT OLIVET STATION 1","CITY":null,"STATE":null,"ZIPCODE":null,"ALIAS":null,"PRE_DIR":null,"STREET":null,"SUFTYPE":null,"SUFDIR":null,"SUBHOUSE":null,"HOUSENO":null,"ADDRESS":null,"SUBD":null,"Bus_phone":null,"created_us":null,"created_da":null,"last_edite":null,"last_edi_1":null,"NOTE":null,"StreetID":null,"latitude":null,"longitude":null,"ServiceAre":null,"GlobalID":null,"Prof_Vol":"Candidate","Delay":1,"Candidate":0,"Required":1,"Station_Type":3}},{"type":"Feature","id":34,"geometry":{"type":"Point","coordinates":[-86.478985402520038,36.917802746372956]},"properties":{"OBJECTID":34,"OBJECTID_1":null,"TYPE":"FIRE","Place_name":"HOUNDS RUN STATION 1","CITY":null,"STATE":null,"ZIPCODE":null,"ALIAS":null,"PRE_DIR":null,"STREET":null,"SUFTYPE":null,"SUFDIR":null,"SUBHOUSE":null,"HOUSENO":null,"ADDRESS":null,"SUBD":null,"Bus_phone":null,"created_us":null,"created_da":null,"last_edite":null,"last_edi_1":null,"NOTE":null,"StreetID":null,"latitude":null,"longitude":null,"ServiceAre":null,"GlobalID":null,"Prof_Vol":"Candidate","Delay":1,"Candidate":0,"Required":1,"Station_Type":3}}]
}
